{
"type": "FeatureCollection",
"name": "WIFI_POINT",
"crs": { "type": "name", "properties": { "name": "urn:ogc:def:crs:OGC:1.3:CRS84" } },
"features": [
{ "type": "Feature", "properties": { "id": 1, "wifi_name": "EDUROAM", "PASSWORD": "PASSWORD" }, "geometry": { "type": "Point", "coordinates": [ 34.596395988387222, -0.00653697078855 ] } },
{ "type": "Feature", "properties": { "id": 3, "wifi_name": "EDUROAM", "PASSWORD": "PASSWORD" }, "geometry": { "type": "Point", "coordinates": [ 34.596366580955589, -0.006678126459506 ] } },
{ "type": "Feature", "properties": { "id": 2, "wifi_name": "ADMINISTRATION", "PASSWORD": "Mas3no@2025" }, "geometry": { "type": "Point", "coordinates": [ 34.597065858724896, -0.006354954265417 ] } },
{ "type": "Feature", "properties": { "id": 4, "wifi_name": "EDUROAM", "PASSWORD": "PASSWORD" }, "geometry": { "type": "Point", "coordinates": [ 34.604706838121928, -0.004496404593887 ] } },
{ "type": "Feature", "properties": { "id": 5, "wifi_name": "EDUROAM", "PASSWORD": "PASSWORD" }, "geometry": { "type": "Point", "coordinates": [ 34.604334137619816, -0.004133609753995 ] } },
{ "type": "Feature", "properties": { "id": 6, "wifi_name": "EDUROAM", "PASSWORD": "PASSWORD" }, "geometry": { "type": "Point", "coordinates": [ 34.608196107274551, -0.00254375113646 ] } },
{ "type": "Feature", "properties": { "id": 7, "wifi_name": "RAGGY ROADS", "PASSWORD": "Mas3no@2025" }, "geometry": { "type": "Point", "coordinates": [ 34.609951885719681, -0.001875119006935 ] } }
]
}
